<?xml version="1.0" encoding="UTF-8"?>
<kml xmlns="http://earth.google.com/kml/2.0">
<!--  Comment: see http://www.keyhole.com/kml/kml_doc.html for file definition...  -->
<Document>
<name>OziExplorer Data</name>
<visibility>1</visibility>
  <LookAt>
    <longitude>85.589280439653</longitude>
    <latitude>28.307746807351</latitude>
    <range>10000</range>
  </LookAt>
<Style id="waypoint">
  <icon><href>root://icons/palette-3.png?x=192&amp;y=96&amp;w=32&amp;h=32</href></icon>
</Style>
<Folder>
<name>Waypoints</name>
  <Placemark>
  <name>Kibhyu Ri</name>
  <description></description>
  <styleUrl>#waypoint</styleUrl>
    <Point>
      <coordinates>85.5892804,28.3077468</coordinates>
    </Point>
    <end>
    <TimeInstant><timePosition><time>2016-12-09T19:07:00Z</time></timePosition></TimeInstant>
    </end>
  </Placemark>
  <Placemark>
  <name>Tsergo Ri (Cherko Ri)</name>
  <description></description>
  <styleUrl>#waypoint</styleUrl>
    <Point>
      <coordinates>85.6037231,28.2157755</coordinates>
    </Point>
    <end>
    <TimeInstant><timePosition><time>2016-12-09T19:07:16Z</time></timePosition></TimeInstant>
    </end>
  </Placemark>
  <Placemark>
  <name>Shalbachum</name>
  <description></description>
  <styleUrl>#waypoint</styleUrl>
    <Point>
      <coordinates>85.6284955,28.2715000</coordinates>
    </Point>
    <end>
    <TimeInstant><timePosition><time>2016-12-09T19:07:46Z</time></timePosition></TimeInstant>
    </end>
  </Placemark>
  <Placemark>
  <name>Goldum</name>
  <description></description>
  <styleUrl>#waypoint</styleUrl>
    <Point>
      <coordinates>85.7369919,28.2779965</coordinates>
    </Point>
    <end>
    <TimeInstant><timePosition><time>2016-12-09T19:08:04Z</time></timePosition></TimeInstant>
    </end>
  </Placemark>
  <Placemark>
  <name>Pangen Dopku</name>
  <description></description>
  <styleUrl>#waypoint</styleUrl>
    <Point>
      <coordinates>85.6110535,28.1624382</coordinates>
    </Point>
    <end>
    <TimeInstant><timePosition><time>2016-12-09T19:08:17Z</time></timePosition></TimeInstant>
    </end>
  </Placemark>
  <Placemark>
  <name>Kangja La pass (Ganja La)</name>
  <description></description>
  <styleUrl>#waypoint</styleUrl>
    <Point>
      <coordinates>85.5619044,28.1598600</coordinates>
    </Point>
    <end>
    <TimeInstant><timePosition><time>2016-12-09T19:08:36Z</time></timePosition></TimeInstant>
    </end>
  </Placemark>
  <Placemark>
  <name>Dshabu Ri</name>
  <description></description>
  <styleUrl>#waypoint</styleUrl>
    <Point>
      <coordinates>85.6095724,28.1795456</coordinates>
    </Point>
    <end>
    <TimeInstant><timePosition><time>2016-12-09T19:09:01Z</time></timePosition></TimeInstant>
    </end>
  </Placemark>
  <Placemark>
  <name>Tilman's Pass</name>
  <description></description>
  <styleUrl>#waypoint</styleUrl>
    <Point>
      <coordinates>85.7036106,28.1622735</coordinates>
    </Point>
    <end>
    <TimeInstant><timePosition><time>2016-12-09T19:09:20Z</time></timePosition></TimeInstant>
    </end>
  </Placemark>
  <Placemark>
  <name>Tembalthang</name>
  <description></description>
  <styleUrl>#waypoint</styleUrl>
    <Point>
      <coordinates>85.6330920,28.1483399</coordinates>
    </Point>
    <end>
    <TimeInstant><timePosition><time>2016-12-09T19:09:38Z</time></timePosition></TimeInstant>
    </end>
  </Placemark>
  <Placemark>
  <name>Dudh Pokhari lake</name>
  <description></description>
  <styleUrl>#waypoint</styleUrl>
    <Point>
      <coordinates>85.7003846,28.1211084</coordinates>
    </Point>
    <end>
    <TimeInstant><timePosition><time>2016-12-09T19:09:51Z</time></timePosition></TimeInstant>
    </end>
  </Placemark>
  <Placemark>
  <name>Dui Pockari lake</name>
  <description></description>
  <styleUrl>#waypoint</styleUrl>
    <Point>
      <coordinates>85.7139780,28.1046790</coordinates>
    </Point>
    <end>
    <TimeInstant><timePosition><time>2016-12-09T19:10:07Z</time></timePosition></TimeInstant>
    </end>
  </Placemark>
  <Placemark>
  <name>4741</name>
  <description></description>
  <styleUrl>#waypoint</styleUrl>
    <Point>
      <coordinates>85.7027219,28.0714372</coordinates>
    </Point>
    <end>
    <TimeInstant><timePosition><time>2016-12-09T19:10:32Z</time></timePosition></TimeInstant>
    </end>
  </Placemark>
  <Placemark>
  <name>4515</name>
  <description></description>
  <styleUrl>#waypoint</styleUrl>
    <Point>
      <coordinates>85.5582826,28.0600625</coordinates>
    </Point>
    <end>
    <TimeInstant><timePosition><time>2016-12-09T19:10:42Z</time></timePosition></TimeInstant>
    </end>
  </Placemark>
  <Placemark>
  <name>Surya Peak</name>
  <description></description>
  <styleUrl>#waypoint</styleUrl>
    <Point>
      <coordinates>85.4416829,28.0842298</coordinates>
    </Point>
    <end>
    <TimeInstant><timePosition><time>2016-12-09T19:10:56Z</time></timePosition></TimeInstant>
    </end>
  </Placemark>
  <Placemark>
  <name>Chhyarkung Chuli</name>
  <description></description>
  <styleUrl>#waypoint</styleUrl>
    <Point>
      <coordinates>85.4220786,28.0538469</coordinates>
    </Point>
    <end>
    <TimeInstant><timePosition><time>2016-12-09T19:11:09Z</time></timePosition></TimeInstant>
    </end>
  </Placemark>
  <Placemark>
  <name>Lauribinayak pass</name>
  <description></description>
  <styleUrl>#waypoint</styleUrl>
    <Point>
      <coordinates>85.4304337,28.0708824</coordinates>
    </Point>
    <end>
    <TimeInstant><timePosition><time>2016-12-09T19:13:01Z</time></timePosition></TimeInstant>
    </end>
  </Placemark>
  <Placemark>
  <name>5392</name>
  <description></description>
  <styleUrl>#waypoint</styleUrl>
    <Point>
      <coordinates>85.4767726,28.0991572</coordinates>
    </Point>
    <end>
    <TimeInstant><timePosition><time>2016-12-09T19:13:23Z</time></timePosition></TimeInstant>
    </end>
  </Placemark>
  <Placemark>
  <name>Naya Kang</name>
  <description></description>
  <styleUrl>#waypoint</styleUrl>
    <Point>
      <coordinates>85.5160653,28.1520907</coordinates>
    </Point>
    <end>
    <TimeInstant><timePosition><time>2016-12-09T19:13:42Z</time></timePosition></TimeInstant>
    </end>
  </Placemark>
  <Placemark>
  <name>5822</name>
  <description></description>
  <styleUrl>#waypoint</styleUrl>
    <Point>
      <coordinates>85.4973079,28.1647189</coordinates>
    </Point>
    <end>
    <TimeInstant><timePosition><time>2016-12-09T19:13:58Z</time></timePosition></TimeInstant>
    </end>
  </Placemark>
  <Placemark>
  <name>5270</name>
  <description></description>
  <styleUrl>#waypoint</styleUrl>
    <Point>
      <coordinates>85.5322286,28.1788874</coordinates>
    </Point>
    <end>
    <TimeInstant><timePosition><time>2016-12-09T19:14:06Z</time></timePosition></TimeInstant>
    </end>
  </Placemark>
  <Placemark>
  <name>6212</name>
  <description></description>
  <styleUrl>#waypoint</styleUrl>
    <Point>
      <coordinates>85.5718782,28.2708928</coordinates>
    </Point>
    <end>
    <TimeInstant><timePosition><time>2016-12-09T19:14:21Z</time></timePosition></TimeInstant>
    </end>
  </Placemark>
  <Placemark>
  <name>Yansa Tsenji</name>
  <description></description>
  <styleUrl>#waypoint</styleUrl>
    <Point>
      <coordinates>85.6050590,28.2576656</coordinates>
    </Point>
    <end>
    <TimeInstant><timePosition><time>2016-12-09T19:14:29Z</time></timePosition></TimeInstant>
    </end>
  </Placemark>
  <Placemark>
  <name>Kyungka Ri</name>
  <description></description>
  <styleUrl>#waypoint</styleUrl>
    <Point>
      <coordinates>85.6424567,28.2895135</coordinates>
    </Point>
    <end>
    <TimeInstant><timePosition><time>2016-12-09T19:14:48Z</time></timePosition></TimeInstant>
    </end>
  </Placemark>
  <Placemark>
  <name>Dragmarpo Ri</name>
  <description></description>
  <styleUrl>#waypoint</styleUrl>
    <Point>
      <coordinates>85.6570460,28.3052989</coordinates>
    </Point>
    <end>
    <TimeInstant><timePosition><time>2016-12-09T19:15:01Z</time></timePosition></TimeInstant>
    </end>
  </Placemark>
  <Placemark>
  <name>Bhemdang Karpo</name>
  <description></description>
  <styleUrl>#waypoint</styleUrl>
    <Point>
      <coordinates>85.6890228,28.2743572</coordinates>
    </Point>
    <end>
    <TimeInstant><timePosition><time>2016-12-09T19:15:16Z</time></timePosition></TimeInstant>
    </end>
  </Placemark>
  <Placemark>
  <name>Morimoto Peak</name>
  <description></description>
  <styleUrl>#waypoint</styleUrl>
    <Point>
      <coordinates>85.6608683,28.2472695</coordinates>
    </Point>
    <end>
    <TimeInstant><timePosition><time>2016-12-09T19:15:34Z</time></timePosition></TimeInstant>
    </end>
  </Placemark>
  <Placemark>
  <name>Langshisha Ri</name>
  <description></description>
  <styleUrl>#waypoint</styleUrl>
    <Point>
      <coordinates>85.7164947,28.2139568</coordinates>
    </Point>
    <end>
    <TimeInstant><timePosition><time>2016-12-09T19:15:52Z</time></timePosition></TimeInstant>
    </end>
  </Placemark>
  <Placemark>
  <name>Kimshung</name>
  <description></description>
  <styleUrl>#waypoint</styleUrl>
    <Point>
      <coordinates>85.5506657,28.2728928</coordinates>
    </Point>
    <end>
    <TimeInstant><timePosition><time>2016-12-09T19:16:07Z</time></timePosition></TimeInstant>
    </end>
  </Placemark>
  <Placemark>
  <name>3190</name>
  <description></description>
  <styleUrl>#waypoint</styleUrl>
    <Point>
      <coordinates>85.3414341,28.2432415</coordinates>
    </Point>
    <end>
    <TimeInstant><timePosition><time>2016-12-09T19:16:27Z</time></timePosition></TimeInstant>
    </end>
  </Placemark>
  <Placemark>
  <name>Ganchenpo</name>
  <description></description>
  <styleUrl>#waypoint</styleUrl>
    <Point>
      <coordinates>85.6776819,28.1694586</coordinates>
    </Point>
    <end>
    <TimeInstant><timePosition><time>2016-12-09T19:16:51Z</time></timePosition></TimeInstant>
    </end>
  </Placemark>
  <Placemark>
  <name>Urkinmang</name>
  <description></description>
  <styleUrl>#waypoint</styleUrl>
    <Point>
      <coordinates>85.7114147,28.1701677</coordinates>
    </Point>
    <end>
    <TimeInstant><timePosition><time>2016-12-09T19:17:04Z</time></timePosition></TimeInstant>
    </end>
  </Placemark>
  <Placemark>
  <name>5846</name>
  <description></description>
  <styleUrl>#waypoint</styleUrl>
    <Point>
      <coordinates>85.7155559,28.1512242</coordinates>
    </Point>
    <end>
    <TimeInstant><timePosition><time>2016-12-10T11:29:44Z</time></timePosition></TimeInstant>
    </end>
  </Placemark>
  <Placemark>
  <name>Yala Peak</name>
  <description></description>
  <styleUrl>#waypoint</styleUrl>
    <Point>
      <coordinates>85.6203384,28.2382861</coordinates>
    </Point>
    <end>
    <TimeInstant><timePosition><time>2016-12-10T11:30:11Z</time></timePosition></TimeInstant>
    </end>
  </Placemark>
</Folder>
</Document>
</kml>
