<?xml version="1.0" encoding="UTF-8"?>
<kml xmlns="http://earth.google.com/kml/2.0">
<!--  Comment: see http://www.keyhole.com/kml/kml_doc.html for file definition...  -->
<Document>
<name>OziExplorer Data</name>
<visibility>1</visibility>
  <LookAt>
    <longitude>85.553910134602</longitude>
    <latitude>28.170031234198</latitude>
    <range>10000</range>
  </LookAt>
<Style id="waypoint">
  <icon><href>root://icons/palette-3.png?x=192&amp;y=96&amp;w=32&amp;h=32</href></icon>
</Style>
<Folder>
<name>Waypoints</name>
  <Placemark>
  <name>Naya Kang</name>
  <description></description>
  <styleUrl>#waypoint</styleUrl>
    <Point>
      <coordinates>85.5539101,28.1700312</coordinates>
    </Point>
    <end>
    <TimeInstant><timePosition><time>2016-12-10T15:56:58Z</time></timePosition></TimeInstant>
    </end>
  </Placemark>
  <Placemark>
  <name>5825</name>
  <description></description>
  <styleUrl>#waypoint</styleUrl>
    <Point>
      <coordinates>85.5103262,28.1602659</coordinates>
    </Point>
    <end>
    <TimeInstant><timePosition><time>2016-12-10T15:59:28Z</time></timePosition></TimeInstant>
    </end>
  </Placemark>
  <Placemark>
  <name>5822</name>
  <description></description>
  <styleUrl>#waypoint</styleUrl>
    <Point>
      <coordinates>85.4980139,28.1697791</coordinates>
    </Point>
    <end>
    <TimeInstant><timePosition><time>2016-12-10T15:59:36Z</time></timePosition></TimeInstant>
    </end>
  </Placemark>
  <Placemark>
  <name>5862</name>
  <description></description>
  <styleUrl>#waypoint</styleUrl>
    <Point>
      <coordinates>85.5137523,28.1553218</coordinates>
    </Point>
    <end>
    <TimeInstant><timePosition><time>2016-12-10T16:00:16Z</time></timePosition></TimeInstant>
    </end>
  </Placemark>
  <Placemark>
  <name>5456</name>
  <description></description>
  <styleUrl>#waypoint</styleUrl>
    <Point>
      <coordinates>85.4842606,28.1454774</coordinates>
    </Point>
    <end>
    <TimeInstant><timePosition><time>2016-12-10T16:00:26Z</time></timePosition></TimeInstant>
    </end>
  </Placemark>
  <Placemark>
  <name>5072</name>
  <description></description>
  <styleUrl>#waypoint</styleUrl>
    <Point>
      <coordinates>85.5381549,28.1309642</coordinates>
    </Point>
    <end>
    <TimeInstant><timePosition><time>2016-12-10T16:00:34Z</time></timePosition></TimeInstant>
    </end>
  </Placemark>
  <Placemark>
  <name>5737</name>
  <description></description>
  <styleUrl>#waypoint</styleUrl>
    <Point>
      <coordinates>85.5087803,28.1177958</coordinates>
    </Point>
    <end>
    <TimeInstant><timePosition><time>2016-12-10T16:00:48Z</time></timePosition></TimeInstant>
    </end>
  </Placemark>
  <Placemark>
  <name>5534</name>
  <description></description>
  <styleUrl>#waypoint</styleUrl>
    <Point>
      <coordinates>85.4759416,28.1054374</coordinates>
    </Point>
    <end>
    <TimeInstant><timePosition><time>2016-12-10T16:00:59Z</time></timePosition></TimeInstant>
    </end>
  </Placemark>
  <Placemark>
  <name>4318</name>
  <description></description>
  <styleUrl>#waypoint</styleUrl>
    <Point>
      <coordinates>85.5252348,28.0744377</coordinates>
    </Point>
    <end>
    <TimeInstant><timePosition><time>2016-12-10T16:01:20Z</time></timePosition></TimeInstant>
    </end>
  </Placemark>
  <Placemark>
  <name>Surya Peak</name>
  <description></description>
  <styleUrl>#waypoint</styleUrl>
    <Point>
      <coordinates>85.4418069,28.0845548</coordinates>
    </Point>
    <end>
    <TimeInstant><timePosition><time>2016-12-10T16:01:28Z</time></timePosition></TimeInstant>
    </end>
  </Placemark>
  <Placemark>
  <name>5095</name>
  <description></description>
  <styleUrl>#waypoint</styleUrl>
    <Point>
      <coordinates>85.4618893,28.0940511</coordinates>
    </Point>
    <end>
    <TimeInstant><timePosition><time>2016-12-10T16:01:42Z</time></timePosition></TimeInstant>
    </end>
  </Placemark>
  <Placemark>
  <name>Saraswati Kund Lake</name>
  <description></description>
  <styleUrl>#waypoint</styleUrl>
    <Point>
      <coordinates>85.4015190,28.0816666</coordinates>
    </Point>
    <end>
    <TimeInstant><timePosition><time>2016-12-10T16:01:54Z</time></timePosition></TimeInstant>
    </end>
  </Placemark>
  <Placemark>
  <name>Bhairav Kund Lake</name>
  <description></description>
  <styleUrl>#waypoint</styleUrl>
    <Point>
      <coordinates>85.4099972,28.0820296</coordinates>
    </Point>
    <end>
    <TimeInstant><timePosition><time>2016-12-10T16:02:11Z</time></timePosition></TimeInstant>
    </end>
  </Placemark>
  <Placemark>
  <name>Lamo Kund Lake</name>
  <description></description>
  <styleUrl>#waypoint</styleUrl>
    <Point>
      <coordinates>85.3904308,28.0632041</coordinates>
    </Point>
    <end>
    <TimeInstant><timePosition><time>2016-12-10T16:02:30Z</time></timePosition></TimeInstant>
    </end>
  </Placemark>
  <Placemark>
  <name>Rani Kund Lake</name>
  <description></description>
  <styleUrl>#waypoint</styleUrl>
    <Point>
      <coordinates>85.3952449,28.0605210</coordinates>
    </Point>
    <end>
    <TimeInstant><timePosition><time>2016-12-10T16:02:42Z</time></timePosition></TimeInstant>
    </end>
  </Placemark>
  <Placemark>
  <name>Kyumachho Kund Lake</name>
  <description></description>
  <styleUrl>#waypoint</styleUrl>
    <Point>
      <coordinates>85.4048961,28.0717993</coordinates>
    </Point>
    <end>
    <TimeInstant><timePosition><time>2016-12-10T16:03:14Z</time></timePosition></TimeInstant>
    </end>
  </Placemark>
  <Placemark>
  <name>Batas Kund Lake</name>
  <description></description>
  <styleUrl>#waypoint</styleUrl>
    <Point>
      <coordinates>85.4090532,28.0641922</coordinates>
    </Point>
    <end>
    <TimeInstant><timePosition><time>2016-12-10T16:03:39Z</time></timePosition></TimeInstant>
    </end>
  </Placemark>
  <Placemark>
  <name>Ragaf Kund Lake</name>
  <description></description>
  <styleUrl>#waypoint</styleUrl>
    <Point>
      <coordinates>85.4207455,28.0680033</coordinates>
    </Point>
    <end>
    <TimeInstant><timePosition><time>2016-12-10T16:03:49Z</time></timePosition></TimeInstant>
    </end>
  </Placemark>
  <Placemark>
  <name>Ama Kund Lake</name>
  <description></description>
  <styleUrl>#waypoint</styleUrl>
    <Point>
      <coordinates>85.4252676,28.0663863</coordinates>
    </Point>
    <end>
    <TimeInstant><timePosition><time>2016-12-10T16:03:59Z</time></timePosition></TimeInstant>
    </end>
  </Placemark>
  <Placemark>
  <name>Raja Kund Lake</name>
  <description></description>
  <styleUrl>#waypoint</styleUrl>
    <Point>
      <coordinates>85.3997331,28.0555759</coordinates>
    </Point>
    <end>
    <TimeInstant><timePosition><time>2016-12-10T16:04:06Z</time></timePosition></TimeInstant>
    </end>
  </Placemark>
  <Placemark>
  <name>Nau Kund Lake</name>
  <description></description>
  <styleUrl>#waypoint</styleUrl>
    <Point>
      <coordinates>85.3971140,28.0510598</coordinates>
    </Point>
    <end>
    <TimeInstant><timePosition><time>2016-12-10T16:04:16Z</time></timePosition></TimeInstant>
    </end>
  </Placemark>
  <Placemark>
  <name>Chhera Kund Lake</name>
  <description></description>
  <styleUrl>#waypoint</styleUrl>
    <Point>
      <coordinates>85.4003951,28.0465187</coordinates>
    </Point>
    <end>
    <TimeInstant><timePosition><time>2016-12-10T16:04:23Z</time></timePosition></TimeInstant>
    </end>
  </Placemark>
  <Placemark>
  <name>Tinchuli Kund Lake</name>
  <description></description>
  <styleUrl>#waypoint</styleUrl>
    <Point>
      <coordinates>85.4036642,28.0409126</coordinates>
    </Point>
    <end>
    <TimeInstant><timePosition><time>2016-12-10T16:04:33Z</time></timePosition></TimeInstant>
    </end>
  </Placemark>
  <Placemark>
  <name>Ekle Kund Lake</name>
  <description></description>
  <styleUrl>#waypoint</styleUrl>
    <Point>
      <coordinates>85.3917569,28.0450896</coordinates>
    </Point>
    <end>
    <TimeInstant><timePosition><time>2016-12-10T16:04:43Z</time></timePosition></TimeInstant>
    </end>
  </Placemark>
  <Placemark>
  <name>Jakung Chuli Kund Lake</name>
  <description></description>
  <styleUrl>#waypoint</styleUrl>
    <Point>
      <coordinates>85.3992791,28.0410645</coordinates>
    </Point>
    <end>
    <TimeInstant><timePosition><time>2016-12-10T16:04:51Z</time></timePosition></TimeInstant>
    </end>
  </Placemark>
  <Placemark>
  <name>Ganesh Kund Lake</name>
  <description></description>
  <styleUrl>#waypoint</styleUrl>
    <Point>
      <coordinates>85.4274926,28.0763625</coordinates>
    </Point>
    <end>
    <TimeInstant><timePosition><time>2016-12-10T16:05:07Z</time></timePosition></TimeInstant>
    </end>
  </Placemark>
  <Placemark>
  <name>Surya Kund Lake</name>
  <description></description>
  <styleUrl>#waypoint</styleUrl>
    <Point>
      <coordinates>85.4304747,28.0722214</coordinates>
    </Point>
    <end>
    <TimeInstant><timePosition><time>2016-12-10T16:05:15Z</time></timePosition></TimeInstant>
    </end>
  </Placemark>
  <Placemark>
  <name>Gosain Kund Lake</name>
  <description></description>
  <styleUrl>#waypoint</styleUrl>
    <Point>
      <coordinates>85.4165333,28.0846657</coordinates>
    </Point>
    <end>
    <TimeInstant><timePosition><time>2016-12-10T16:05:26Z</time></timePosition></TimeInstant>
    </end>
  </Placemark>
  <Placemark>
  <name>4552</name>
  <description></description>
  <styleUrl>#waypoint</styleUrl>
    <Point>
      <coordinates>85.5634047,28.0645186</coordinates>
    </Point>
    <end>
    <TimeInstant><timePosition><time>2016-12-10T16:05:43Z</time></timePosition></TimeInstant>
    </end>
  </Placemark>
  <Placemark>
  <name>3665</name>
  <description></description>
  <styleUrl>#waypoint</styleUrl>
    <Point>
      <coordinates>85.5648479,28.0333508</coordinates>
    </Point>
    <end>
    <TimeInstant><timePosition><time>2016-12-10T16:05:49Z</time></timePosition></TimeInstant>
    </end>
  </Placemark>
  <Placemark>
  <name>4702</name>
  <description></description>
  <styleUrl>#waypoint</styleUrl>
    <Point>
      <coordinates>85.5690717,28.1080317</coordinates>
    </Point>
    <end>
    <TimeInstant><timePosition><time>2016-12-10T16:05:57Z</time></timePosition></TimeInstant>
    </end>
  </Placemark>
  <Placemark>
  <name>4912</name>
  <description></description>
  <styleUrl>#waypoint</styleUrl>
    <Point>
      <coordinates>85.5874840,28.1406886</coordinates>
    </Point>
    <end>
    <TimeInstant><timePosition><time>2016-12-10T16:06:14Z</time></timePosition></TimeInstant>
    </end>
  </Placemark>
  <Placemark>
  <name>5552</name>
  <description></description>
  <styleUrl>#waypoint</styleUrl>
    <Point>
      <coordinates>85.6164136,28.1533100</coordinates>
    </Point>
    <end>
    <TimeInstant><timePosition><time>2016-12-10T16:06:23Z</time></timePosition></TimeInstant>
    </end>
  </Placemark>
  <Placemark>
  <name>3296</name>
  <description></description>
  <styleUrl>#waypoint</styleUrl>
    <Point>
      <coordinates>85.3165186,28.2128756</coordinates>
    </Point>
    <end>
    <TimeInstant><timePosition><time>2016-12-10T16:07:01Z</time></timePosition></TimeInstant>
    </end>
  </Placemark>
  <Placemark>
  <name>4160</name>
  <description></description>
  <styleUrl>#waypoint</styleUrl>
    <Point>
      <coordinates>85.4020036,28.1863202</coordinates>
    </Point>
    <end>
    <TimeInstant><timePosition><time>2016-12-10T16:07:14Z</time></timePosition></TimeInstant>
    </end>
  </Placemark>
  <Placemark>
  <name>4028</name>
  <description></description>
  <styleUrl>#waypoint</styleUrl>
    <Point>
      <coordinates>85.6155529,28.0718199</coordinates>
    </Point>
    <end>
    <TimeInstant><timePosition><time>2016-12-10T16:07:31Z</time></timePosition></TimeInstant>
    </end>
  </Placemark>
</Folder>
</Document>
</kml>
